[
  {
    "序號": 1,
    "類別": "好客民宿",
    "星等": "",
    "旅宿名稱": "林家民宿",
    "縣市": "高雄市",
    "鄉鎮": "美濃區",
    "地址": "843高雄市美濃區民族路53-7號",
    "電話": "07-6820658",
    "傳真": "",
    "房間數": 3,
    "電子郵件": "",
    "網址": "",
    "郵遞區號": 843,
    "經度Lng": 120.557460999,
    "緯度Lat": 22.9054229019,
    "資料序號Seq": 1
  },
  {
    "序號": 2,
    "類別": "好客民宿",
    "星等": "",
    "旅宿名稱": "巴尼.蓋休閒農莊民宿",
    "縣市": "高雄市",
    "鄉鎮": "那瑪夏區",
    "地址": "849高雄市那瑪夏區瑪雅里平和巷202號",
    "電話": "07-6701926",
    "傳真": "",
    "房間數": 4,
    "電子郵件": "",
    "網址": "",
    "郵遞區號": 849,
    "經度Lng": 120.696155899,
    "緯度Lat": 23.2441494961,
    "資料序號Seq": 2
  },
  {
    "序號": 3,
    "類別": "好客民宿",
    "星等": "",
    "旅宿名稱": "月光山林",
    "縣市": "高雄市",
    "鄉鎮": "杉林區",
    "地址": "846高雄市杉林區桐竹路209號",
    "電話": "07-6772586",
    "傳真": "07-6772587",
    "房間數": 5,
    "電子郵件": "",
    "網址": "http://www.moonlight.com.tw/",
    "郵遞區號": 846,
    "經度Lng": 120.532482599,
    "緯度Lat": 22.9455569984,
    "資料序號Seq": 3
  },
  {
    "序號": 4,
    "類別": "好客民宿",
    "星等": "",
    "旅宿名稱": "旗山三合院民宿",
    "縣市": "高雄市",
    "鄉鎮": "旗山區",
    "地址": "842高雄市旗山區廣福里中興街6號",
    "電話": "0919-106412",
    "傳真": "",
    "房間數": 3,
    "電子郵件": "sanhoyuan888@yahoo.com.tw",
    "網址": "http://go-action.myweb.hinet.net/",
    "郵遞區號": 842,
    "經度Lng": 120.487633,
    "緯度Lat": 22.8477740031,
    "資料序號Seq": 4
  },
  {
    "序號": 5,
    "類別": "好客民宿",
    "星等": "",
    "旅宿名稱": "人字山莊",
    "縣市": "高雄市",
    "鄉鎮": "美濃區",
    "地址": "843高雄市美濃區民權路66-5號",
    "電話": "07-6822159",
    "傳真": "",
    "房間數": 3,
    "電子郵件": "",
    "網址": "",
    "郵遞區號": 843,
    "經度Lng": 120.552623999,
    "緯度Lat": 22.9129209951,
    "資料序號Seq": 5
  },
  {
    "序號": 6,
    "類別": "好客民宿",
    "星等": "",
    "旅宿名稱": "菸城民宿",
    "縣市": "高雄市",
    "鄉鎮": "美濃區",
    "地址": "843高雄市美濃區中華路7巷17號",
    "電話": "07-6851110",
    "傳真": "07-6851981",
    "房間數": 2,
    "電子郵件": "ada4155.ada4155@msa.hinet.net",
    "網址": "",
    "郵遞區號": 843,
    "經度Lng": 120.562393699,
    "緯度Lat": 22.8787031018,
    "資料序號Seq": 6
  },
  {
    "序號": 7,
    "類別": "好客民宿",
    "星等": "",
    "旅宿名稱": "竹亮山莊",
    "縣市": "高雄市",
    "鄉鎮": "內門區",
    "地址": "845高雄市內門區竹戈寮8之3號",
    "電話": "07-6673963",
    "傳真": "",
    "房間數": 3,
    "電子郵件": "",
    "網址": "http://blog.xuite.net/glass_house/twblog/160097483",
    "郵遞區號": 845,
    "經度Lng": 120.4660509,
    "緯度Lat": 22.904441402,
    "資料序號Seq": 7
  },
  {
    "序號": 8,
    "類別": "好客民宿",
    "星等": "",
    "旅宿名稱": "美濃雲山居民宿",
    "縣市": "高雄市",
    "鄉鎮": "美濃區",
    "地址": "843高雄市美濃區龍山街56-1號",
    "電話": "07-6833808",
    "傳真": "",
    "房間數": 5,
    "電子郵件": "s1021306@ms58.hinet.net",
    "網址": "http://www.5658.tw/6833808/",
    "郵遞區號": 843,
    "經度Lng": 120.557482,
    "緯度Lat": 22.8668400962,
    "資料序號Seq": 8
  },
  {
    "序號": 9,
    "類別": "民宿",
    "星等": "",
    "旅宿名稱": "松柏林民宿",
    "縣市": "高雄市",
    "鄉鎮": "六龜區",
    "地址": "844高雄市六龜區興龍里3鄰土壟37-8號",
    "電話": "07-6891010",
    "傳真": "07-6895715",
    "房間數": 5,
    "電子郵件": "sbl.liu@msa.hinet.net",
    "網址": "",
    "郵遞區號": 844,
    "經度Lng": 120.6602534,
    "緯度Lat": 23.0067457996,
    "資料序號Seq": 9
  },
  {
    "序號": 10,
    "類別": "民宿",
    "星等": "",
    "旅宿名稱": "草地人民宿",
    "縣市": "高雄市",
    "鄉鎮": "六龜區",
    "地址": "844高雄市六龜區新發里新開路33-1號",
    "電話": "07-6791992",
    "傳真": "07-6791736",
    "房間數": 2,
    "電子郵件": "",
    "網址": "http://www.facebook.com/CDRSPA",
    "郵遞區號": 844,
    "經度Lng": 120.677438,
    "緯度Lat": 23.0574751004,
    "資料序號Seq": 10
  },
  {
    "序號": 11,
    "類別": "民宿",
    "星等": "",
    "旅宿名稱": "峰園民宿",
    "縣市": "高雄市",
    "鄉鎮": "美濃區",
    "地址": "843高雄市美濃區雙峰街8-20號",
    "電話": "07-6820839",
    "傳真": "",
    "房間數": 5,
    "電子郵件": "",
    "網址": "",
    "郵遞區號": 843,
    "經度Lng": 120.539966499,
    "緯度Lat": 22.9119834976,
    "資料序號Seq": 11
  },
  {
    "序號": 12,
    "類別": "民宿",
    "星等": "",
    "旅宿名稱": "百果園民宿",
    "縣市": "高雄市",
    "鄉鎮": "美濃區",
    "地址": "843高雄市美濃區復興街1段58巷5號",
    "電話": "07-6818587",
    "傳真": "",
    "房間數": 4,
    "電子郵件": "",
    "網址": "",
    "郵遞區號": 843,
    "經度Lng": 120.536280697,
    "緯度Lat": 22.8834795957,
    "資料序號Seq": 12
  },
  {
    "序號": 13,
    "類別": "民宿",
    "星等": "",
    "旅宿名稱": "中正湖歐式山莊",
    "縣市": "高雄市",
    "鄉鎮": "美濃區",
    "地址": "843高雄市美濃區福美路28號",
    "電話": "07-6812736",
    "傳真": "07-6817783",
    "房間數": 5,
    "電子郵件": "",
    "網址": "",
    "郵遞區號": 843,
    "經度Lng": 120.5519913,
    "緯度Lat": 22.9135060954,
    "資料序號Seq": 13
  },
  {
    "序號": 14,
    "類別": "民宿",
    "星等": "",
    "旅宿名稱": "川雅居",
    "縣市": "高雄市",
    "鄉鎮": "旗山區",
    "地址": "842高雄市旗山區圓富里9鄰富興路23巷3號",
    "電話": "0919-779815",
    "傳真": "",
    "房間數": 5,
    "電子郵件": "emily815@yahoo.com.tw",
    "網址": "",
    "郵遞區號": 842,
    "經度Lng": 120.492353399,
    "緯度Lat": 22.9240579014,
    "資料序號Seq": 14
  },
  {
    "序號": 15,
    "類別": "民宿",
    "星等": "",
    "旅宿名稱": "老頭民宿",
    "縣市": "高雄市",
    "鄉鎮": "旗山區",
    "地址": "842高雄市旗山區三協里花旗二路11巷6號",
    "電話": "0928-162096",
    "傳真": "",
    "房間數": 3,
    "電子郵件": "old.dady@msa.hinet.net",
    "網址": "",
    "郵遞區號": 842,
    "經度Lng": 120.4661296,
    "緯度Lat": 22.8811343985,
    "資料序號Seq": 15
  },
  {
    "序號": 16,
    "類別": "民宿",
    "星等": "",
    "旅宿名稱": "旗山民宿",
    "縣市": "高雄市",
    "鄉鎮": "旗山區",
    "地址": "842高雄市旗山區三協里楊厝巷11-1號",
    "電話": "0918-183715",
    "傳真": "07-6618983",
    "房間數": 3,
    "電子郵件": "",
    "網址": "",
    "郵遞區號": 842,
    "經度Lng": 120.464565999,
    "緯度Lat": 22.8768228019,
    "資料序號Seq": 16
  },
  {
    "序號": 17,
    "類別": "民宿",
    "星等": "",
    "旅宿名稱": "花旗山莊民宿",
    "縣市": "高雄市",
    "鄉鎮": "旗山區",
    "地址": "842高雄市旗山區三協里成功街1號及2號",
    "電話": "07-6623824",
    "傳真": "",
    "房間數": 4,
    "電子郵件": "just.jst99@msa.hinet.net",
    "網址": "",
    "郵遞區號": 842,
    "經度Lng": 120.464565999,
    "緯度Lat": 22.8768228019,
    "資料序號Seq": 17
  },
  {
    "序號": 18,
    "類別": "民宿",
    "星等": "",
    "旅宿名稱": "桂林民宿",
    "縣市": "高雄市",
    "鄉鎮": "美濃區",
    "地址": "843高雄市美濃區廣林里16鄰朝元159-6號",
    "電話": "07-6810172",
    "傳真": "",
    "房間數": 5,
    "電子郵件": "",
    "網址": "",
    "郵遞區號": 843,
    "經度Lng": 120.585199,
    "緯度Lat": 22.9423271012,
    "資料序號Seq": 18
  },
  {
    "序號": 19,
    "類別": "民宿",
    "星等": "",
    "旅宿名稱": "愛至民宿",
    "縣市": "高雄市",
    "鄉鎮": "旗山區",
    "地址": "842高雄市旗山區三協里成功一街7，8號",
    "電話": "07-6626964(0912-165145)",
    "傳真": "",
    "房間數": 4,
    "電子郵件": "3226962@gmail.com",
    "網址": "",
    "郵遞區號": 842,
    "經度Lng": 120.465935,
    "緯度Lat": 22.8796177967,
    "資料序號Seq": 19
  },
  {
    "序號": 20,
    "類別": "好客民宿",
    "星等": "",
    "旅宿名稱": "明山莊",
    "縣市": "高雄市",
    "鄉鎮": "大樹區",
    "地址": "840高雄市大樹區三和里三和路120-1號",
    "電話": "07-6563891",
    "傳真": "",
    "房間數": 5,
    "電子郵件": "mingshanvilla@gmail.com",
    "網址": "",
    "郵遞區號": 840,
    "經度Lng": 120.425581,
    "緯度Lat": 22.7200873984,
    "資料序號Seq": 20
  },
  {
    "序號": 21,
    "類別": "好客民宿",
    "星等": "",
    "旅宿名稱": "亞力民宿",
    "縣市": "高雄市",
    "鄉鎮": "桃源區",
    "地址": "848高雄市桃源區建山巷86-2號",
    "電話": "07-6882042",
    "傳真": "07-6881915",
    "房間數": 4,
    "電子郵件": "s223411.aliave@msa.hinet.net",
    "網址": "",
    "郵遞區號": 848,
    "經度Lng": 120.6817755,
    "緯度Lat": 23.1028151032,
    "資料序號Seq": 21
  },
  {
    "序號": 22,
    "類別": "民宿",
    "星等": "",
    "旅宿名稱": "美綠民宿",
    "縣市": "高雄市",
    "鄉鎮": "美濃區",
    "地址": "843高雄市美濃區獅山里竹門14-2號",
    "電話": "07-6851111",
    "傳真": "07-6850156",
    "房間數": 5,
    "電子郵件": "mei.lu3688@msa.hinet.net",
    "網址": "",
    "郵遞區號": 843,
    "經度Lng": 120.586229099,
    "緯度Lat": 22.8733361983,
    "資料序號Seq": 22
  },
  {
    "序號": 23,
    "類別": "民宿",
    "星等": "",
    "旅宿名稱": "木森林香草民宿",
    "縣市": "高雄市",
    "鄉鎮": "六龜區",
    "地址": "844高雄市六龜區興龍里舊潭21-1號",
    "電話": "07-6895866，6895021",
    "傳真": "07-6894487，6895658",
    "房間數": 1,
    "電子郵件": "",
    "網址": "",
    "郵遞區號": 844,
    "經度Lng": 120.666248,
    "緯度Lat": 23.0150290032,
    "資料序號Seq": 23
  },
  {
    "序號": 24,
    "類別": "民宿",
    "星等": "",
    "旅宿名稱": "天闊綠大地",
    "縣市": "高雄市",
    "鄉鎮": "六龜區",
    "地址": "844高雄市六龜區新發里新開62-10號",
    "電話": "07-6791155",
    "傳真": "07-3791122",
    "房間數": 5,
    "電子郵件": "",
    "網址": "",
    "郵遞區號": 844,
    "經度Lng": 120.677438,
    "緯度Lat": 23.0574751004,
    "資料序號Seq": 24
  },
  {
    "序號": 25,
    "類別": "民宿",
    "星等": "",
    "旅宿名稱": "妞妞與夢卡民宿",
    "縣市": "高雄市",
    "鄉鎮": "六龜區",
    "地址": "844高雄市六龜區寶來里中正路16號",
    "電話": "07-6881725",
    "傳真": "",
    "房間數": 5,
    "電子郵件": "",
    "網址": "",
    "郵遞區號": 844,
    "經度Lng": 120.7058752,
    "緯度Lat": 23.1114725957,
    "資料序號Seq": 25
  },
  {
    "序號": 26,
    "類別": "民宿",
    "星等": "",
    "旅宿名稱": "恬瑩居",
    "縣市": "高雄市",
    "鄉鎮": "六龜區",
    "地址": "844高雄市六龜區荖濃里19鄰裕濃路81巷38號",
    "電話": "07-688-2061",
    "傳真": "",
    "房間數": 5,
    "電子郵件": "",
    "網址": "",
    "郵遞區號": 84444,
    "經度Lng": 120.672856299,
    "緯度Lat": 23.0718437014,
    "資料序號Seq": 26
  },
  {
    "序號": 27,
    "類別": "民宿",
    "星等": "",
    "旅宿名稱": "扇平山莊(民宿)",
    "縣市": "高雄市",
    "鄉鎮": "六龜區",
    "地址": "844高雄市六龜區中興里尾庄45-3號",
    "電話": "07-6895882",
    "傳真": "07-6895838",
    "房間數": 5,
    "電子郵件": "",
    "網址": "",
    "郵遞區號": 844,
    "經度Lng": 120.660253399,
    "緯度Lat": 22.9853358999,
    "資料序號Seq": 27
  },
  {
    "序號": 28,
    "類別": "民宿",
    "星等": "",
    "旅宿名稱": "麥克亞倫渡假村",
    "縣市": "高雄市",
    "鄉鎮": "六龜區",
    "地址": "844高雄市六龜區新發里和平路130-5號",
    "電話": "07-5560392",
    "傳真": "07-5561897",
    "房間數": 5,
    "電子郵件": "",
    "網址": "",
    "郵遞區號": 844,
    "經度Lng": 120.663291199,
    "緯度Lat": 23.0299697977,
    "資料序號Seq": 28
  },
  {
    "序號": 29,
    "類別": "民宿",
    "星等": "",
    "旅宿名稱": "湖美茵/快樂/天然",
    "縣市": "高雄市",
    "鄉鎮": "美濃區",
    "地址": "843高雄市美濃區中山路2段782巷52號",
    "電話": "07-6817828",
    "傳真": "07-6817828",
    "房間數": 3,
    "電子郵件": "homeinn100@gmail.com",
    "網址": "",
    "郵遞區號": 843,
    "經度Lng": 120.509939999,
    "緯度Lat": 22.8937769949,
    "資料序號Seq": 29
  },
  {
    "序號": 30,
    "類別": "民宿",
    "星等": "",
    "旅宿名稱": "頭前園民宿",
    "縣市": "高雄市",
    "鄉鎮": "田寮區",
    "地址": "823高雄市田寮區崇德里崇德路9號",
    "電話": "07-6366688",
    "傳真": "07-6366688",
    "房間數": 3,
    "電子郵件": "",
    "網址": "",
    "郵遞區號": 823,
    "經度Lng": 120.382426299,
    "緯度Lat": 22.8775029992,
    "資料序號Seq": 30
  },
  {
    "序號": 31,
    "類別": "民宿",
    "星等": "",
    "旅宿名稱": "一家人本舖",
    "縣市": "高雄市",
    "鄉鎮": "桃源區",
    "地址": "848高雄市桃源區寶山里7鄰寶山巷88之6號",
    "電話": "07-6892007",
    "傳真": "07-7410333",
    "房間數": 5,
    "電子郵件": "s186700ms57@gmail.com",
    "網址": "",
    "郵遞區號": 848,
    "經度Lng": "",
    "緯度Lat": "",
    "資料序號Seq": 31
  },
  {
    "序號": 32,
    "類別": "民宿",
    "星等": "",
    "旅宿名稱": "土夏生機花園民宿",
    "縣市": "高雄市",
    "鄉鎮": "六龜區",
    "地址": "844高雄市六龜區新發里和平路130-72號",
    "電話": "07-6791000",
    "傳真": "07-6791350",
    "房間數": 2,
    "電子郵件": "",
    "網址": "",
    "郵遞區號": 844,
    "經度Lng": 120.663291199,
    "緯度Lat": 23.0299697977,
    "資料序號Seq": 32
  },
  {
    "序號": 33,
    "類別": "民宿",
    "星等": "",
    "旅宿名稱": "大樹南瓜屋-義大別莊",
    "縣市": "高雄市",
    "鄉鎮": "大樹區",
    "地址": "840高雄市大樹區三和里學城路一段8巷86號",
    "電話": "07-7515754",
    "傳真": "07-7515754",
    "房間數": 4,
    "電子郵件": "mewawa@gmail.com",
    "網址": "http://dashu-punkinhouse.com",
    "郵遞區號": 840,
    "經度Lng": 120.4047532,
    "緯度Lat": 22.7270473981,
    "資料序號Seq": 33
  },
  {
    "序號": 34,
    "類別": "民宿",
    "星等": "",
    "旅宿名稱": "山水炎民宿",
    "縣市": "高雄市",
    "鄉鎮": "六龜區",
    "地址": "844高雄市六龜區中興里尾庄55之2號",
    "電話": "07-6891257",
    "傳真": "",
    "房間數": 5,
    "電子郵件": "",
    "網址": "",
    "郵遞區號": 844,
    "經度Lng": 120.660253399,
    "緯度Lat": 22.9853358999,
    "資料序號Seq": 34
  },
  {
    "序號": 35,
    "類別": "民宿",
    "星等": "",
    "旅宿名稱": "中正湖民宿",
    "縣市": "高雄市",
    "鄉鎮": "美濃區",
    "地址": "843高雄市美濃區福美路30號",
    "電話": "07-6812736",
    "傳真": "07-6817783",
    "房間數": 5,
    "電子郵件": "",
    "網址": "",
    "郵遞區號": 843,
    "經度Lng": 120.551431599,
    "緯度Lat": 22.913205096,
    "資料序號Seq": 35
  },
  {
    "序號": 36,
    "類別": "民宿",
    "星等": "",
    "旅宿名稱": "日景園",
    "縣市": "高雄市",
    "鄉鎮": "六龜區",
    "地址": "844高雄市六龜區文武里光明巷37-1號",
    "電話": "07-6891317",
    "傳真": "07-6894113",
    "房間數": 5,
    "電子郵件": "",
    "網址": "",
    "郵遞區號": 844,
    "經度Lng": 120.6339673,
    "緯度Lat": 22.9916695011,
    "資料序號Seq": 36
  },
  {
    "序號": 37,
    "類別": "民宿",
    "星等": "",
    "旅宿名稱": "月灣森林villa民宿",
    "縣市": "高雄市",
    "鄉鎮": "桃源區",
    "地址": "848高雄市桃源區勤和里南橫公路3段333號(通訊地址:844六龜區中正路140之8號)",
    "電話": "07-6882225",
    "傳真": "07-6882354",
    "房間數": 5,
    "電子郵件": "",
    "網址": "",
    "郵遞區號": 848,
    "經度Lng": 120.7749079,
    "緯度Lat": 23.171434796,
    "資料序號Seq": 37
  },
  {
    "序號": 38,
    "類別": "民宿",
    "星等": "",
    "旅宿名稱": "古木拉民宿",
    "縣市": "高雄市",
    "鄉鎮": "茂林區",
    "地址": "851高雄市茂林區多納里90-2號",
    "電話": "0963-344994",
    "傳真": "07-6801040",
    "房間數": 5,
    "電子郵件": "mawlin85@yahoo.com.tw",
    "網址": "",
    "郵遞區號": 851,
    "經度Lng": 120.7809676,
    "緯度Lat": 22.9221243027,
    "資料序號Seq": 38
  },
  {
    "序號": 39,
    "類別": "民宿",
    "星等": "",
    "旅宿名稱": "布農星宿民宿",
    "縣市": "高雄市",
    "鄉鎮": "桃源區",
    "地址": "848高雄市桃源區寶山里寶山巷19-8號",
    "電話": "07-7352259",
    "傳真": "07-7320429",
    "房間數": 5,
    "電子郵件": "",
    "網址": "",
    "郵遞區號": 848,
    "經度Lng": 120.7283102,
    "緯度Lat": 23.0558099902,
    "資料序號Seq": 39
  },
  {
    "序號": 40,
    "類別": "民宿",
    "星等": "",
    "旅宿名稱": "田莊民宿",
    "縣市": "高雄市",
    "鄉鎮": "杉林區",
    "地址": "846高雄市杉林區月美里11鄰桐竹路242-20號",
    "電話": "07-6771703",
    "傳真": "",
    "房間數": 4,
    "電子郵件": "",
    "網址": "",
    "郵遞區號": 846,
    "經度Lng": 120.5324458,
    "緯度Lat": 22.9455635997,
    "資料序號Seq": 40
  },
  {
    "序號": 41,
    "類別": "民宿",
    "星等": "",
    "旅宿名稱": "吉梅雅舍民宿",
    "縣市": "高雄市",
    "鄉鎮": "阿蓮區",
    "地址": "822高雄市阿蓮區復安里復安32-7號",
    "電話": "07-3867214",
    "傳真": "",
    "房間數": 1,
    "電子郵件": "",
    "網址": "",
    "郵遞區號": 822,
    "經度Lng": 120.3245447,
    "緯度Lat": 22.8492797994,
    "資料序號Seq": 41
  },
  {
    "序號": 42,
    "類別": "民宿",
    "星等": "",
    "旅宿名稱": "自強民宿",
    "縣市": "高雄市",
    "鄉鎮": "美濃區",
    "地址": "843高雄市美濃區自強街1段316號",
    "電話": "07-6810621",
    "傳真": "07-6810621",
    "房間數": 5,
    "電子郵件": "",
    "網址": "",
    "郵遞區號": 843,
    "經度Lng": 120.539982797,
    "緯度Lat": 22.9041608998,
    "資料序號Seq": 42
  },
  {
    "序號": 43,
    "類別": "民宿",
    "星等": "",
    "旅宿名稱": "阿拉斯民宿",
    "縣市": "高雄市",
    "鄉鎮": "茂林區",
    "地址": "851高雄市茂林區多納里2鄰32號",
    "電話": "07-6801277",
    "傳真": "",
    "房間數": 4,
    "電子郵件": "",
    "網址": "",
    "郵遞區號": 851,
    "經度Lng": 120.7809676,
    "緯度Lat": 22.9221243027,
    "資料序號Seq": 43
  },
  {
    "序號": 44,
    "類別": "民宿",
    "星等": "",
    "旅宿名稱": "春綠民宿",
    "縣市": "高雄市",
    "鄉鎮": "美濃區",
    "地址": "843高雄市美濃區中壇里五福街95號",
    "電話": "07-6831111",
    "傳真": "07-6833888",
    "房間數": 5,
    "電子郵件": "chunlu.bb@msa.hinet.net",
    "網址": "",
    "郵遞區號": 843,
    "經度Lng": 120.54109,
    "緯度Lat": 22.8661182024,
    "資料序號Seq": 44
  },
  {
    "序號": 45,
    "類別": "民宿",
    "星等": "",
    "旅宿名稱": "美濃民宿",
    "縣市": "高雄市",
    "鄉鎮": "美濃區",
    "地址": "843高雄市美濃區自強街1段318號",
    "電話": "07-6810621",
    "傳真": "07-68822476",
    "房間數": 5,
    "電子郵件": "",
    "網址": "",
    "郵遞區號": 843,
    "經度Lng": 120.539982797,
    "緯度Lat": 22.9041608998,
    "資料序號Seq": 45
  },
  {
    "序號": 46,
    "類別": "民宿",
    "星等": "",
    "旅宿名稱": "美濃能量莊園",
    "縣市": "高雄市",
    "鄉鎮": "美濃區",
    "地址": "843高雄市美濃區清水里南中街3-3號",
    "電話": "07-6830813",
    "傳真": "",
    "房間數": 5,
    "電子郵件": "",
    "網址": "",
    "郵遞區號": 843,
    "經度Lng": 120.533458099,
    "緯度Lat": 22.8668347981,
    "資料序號Seq": 46
  },
  {
    "序號": 47,
    "類別": "民宿",
    "星等": "",
    "旅宿名稱": "美濃情休閒觀光民宿",
    "縣市": "高雄市",
    "鄉鎮": "美濃區",
    "地址": "843高雄市美濃區祿興里上竹圍14號",
    "電話": "07-6813351",
    "傳真": "",
    "房間數": 3,
    "電子郵件": "",
    "網址": "",
    "郵遞區號": 843,
    "經度Lng": 120.545499999,
    "緯度Lat": 22.8820210021,
    "資料序號Seq": 47
  },
  {
    "序號": 48,
    "類別": "民宿",
    "星等": "",
    "旅宿名稱": "得恩谷?民宿",
    "縣市": "高雄市",
    "鄉鎮": "茂林區",
    "地址": "851高雄市茂林區茂林里6鄰138號",
    "電話": "07-6801540",
    "傳真": "07-6801539",
    "房間數": 5,
    "電子郵件": "",
    "網址": "",
    "郵遞區號": 851,
    "經度Lng": 120.671755,
    "緯度Lat": 22.8865458947,
    "資料序號Seq": 48
  },
  {
    "序號": 49,
    "類別": "民宿",
    "星等": "",
    "旅宿名稱": "梅礦民宿",
    "縣市": "高雄市",
    "鄉鎮": "六龜區",
    "地址": "844高雄市六龜區寶來里竹林路65-31號",
    "電話": "07-6883330",
    "傳真": "",
    "房間數": 4,
    "電子郵件": "",
    "網址": "",
    "郵遞區號": 844,
    "經度Lng": 120.6947551,
    "緯度Lat": 23.1171058998,
    "資料序號Seq": 49
  },
  {
    "序號": 50,
    "類別": "民宿",
    "星等": "",
    "旅宿名稱": "梅蘭山莊",
    "縣市": "高雄市",
    "鄉鎮": "桃源區",
    "地址": "848高雄市桃源區梅蘭里南橫公路五段222號",
    "電話": "07-6866039",
    "傳真": "07-6866269",
    "房間數": 5,
    "電子郵件": "",
    "網址": "",
    "郵遞區號": 848,
    "經度Lng": 120.809884799,
    "緯度Lat": 23.2300271013,
    "資料序號Seq": 50
  },
  {
    "序號": 51,
    "類別": "民宿",
    "星等": "",
    "旅宿名稱": "清園民宿",
    "縣市": "高雄市",
    "鄉鎮": "美濃區",
    "地址": "843高雄市美濃區自強路1段320號",
    "電話": "07-6810621",
    "傳真": "07-6822476",
    "房間數": 5,
    "電子郵件": "",
    "網址": "",
    "郵遞區號": 843,
    "經度Lng": 120.5340311,
    "緯度Lat": 22.9023767959,
    "資料序號Seq": 51
  },
  {
    "序號": 52,
    "類別": "民宿",
    "星等": "",
    "旅宿名稱": "雅砌民宿",
    "縣市": "高雄市",
    "鄉鎮": "六龜區",
    "地址": "844高雄市六龜區荖濃里南橫路132號(聯絡地址：三民區市中一路384巷89號)",
    "電話": "07-2821787",
    "傳真": "",
    "房間數": 2,
    "電子郵件": "",
    "網址": "",
    "郵遞區號": 844,
    "經度Lng": "",
    "緯度Lat": "",
    "資料序號Seq": 52
  },
  {
    "序號": 53,
    "類別": "民宿",
    "星等": "",
    "旅宿名稱": "義大詩篇",
    "縣市": "高雄市",
    "鄉鎮": "大樹區",
    "地址": "840高雄市大樹區義大七街23號2-3樓",
    "電話": "0926-888912",
    "傳真": "",
    "房間數": 4,
    "電子郵件": "",
    "網址": "",
    "郵遞區號": 840,
    "經度Lng": "",
    "緯度Lat": "",
    "資料序號Seq": 53
  },
  {
    "序號": 54,
    "類別": "民宿",
    "星等": "",
    "旅宿名稱": "義大樂章",
    "縣市": "高雄市",
    "鄉鎮": "大樹區",
    "地址": "840高雄市大樹區義大七街17號1-2樓",
    "電話": "0912-162095",
    "傳真": "",
    "房間數": 4,
    "電子郵件": "joey.lin6597@msa.hinet.net",
    "網址": "",
    "郵遞區號": 840,
    "經度Lng": 120.4034052,
    "緯度Lat": 22.7286055964,
    "資料序號Seq": 54
  },
  {
    "序號": 55,
    "類別": "民宿",
    "星等": "",
    "旅宿名稱": "寧妮谷民宿",
    "縣市": "高雄市",
    "鄉鎮": "那瑪夏區",
    "地址": "849高雄市那瑪夏區達卡努瓦里3鄰秀嶺巷183號",
    "電話": "07-6701087",
    "傳真": "",
    "房間數": 5,
    "電子郵件": "biung1984@gmail.com",
    "網址": "http://https://www.facebook.com/ningniguesthouse/?ref=aymt_homepage_panel",
    "郵遞區號": 849,
    "經度Lng": 120.710058399,
    "緯度Lat": 23.2647337019,
    "資料序號Seq": 55
  },
  {
    "序號": 56,
    "類別": "民宿",
    "星等": "",
    "旅宿名稱": "旗山麗景民宿",
    "縣市": "高雄市",
    "鄉鎮": "旗山區",
    "地址": "842高雄市旗山區上洲里中洲路溝底巷1-3號",
    "電話": "07-6612232",
    "傳真": "",
    "房間數": 3,
    "電子郵件": "",
    "網址": "",
    "郵遞區號": 842,
    "經度Lng": 120.4727596,
    "緯度Lat": 22.8580113997,
    "資料序號Seq": 56
  }
]